[
  {
    "name": "Baca County Public Health",
    "address": "741 Main St Ste 4, Springfield, CO",
    "location": {
      "latitude": 0,
      "longitude": 0
    }
  },
  {
    "name": "Bent County Public Health",
    "address": "Park Ave, Las Animas, CO",
    "location": {
      "latitude": "37.1646058",
      "longitude": "-104.521261"
    }
  },
  {
    "name": "Boulder County Public Health Boulder",
    "address": "3450 Broadway St, Boulder, CO",
    "location": {
      "latitude": 0,
      "longitude": 0
    }
  },
  {
    "name": "Boulder County Public Health Longmont",
    "address": "515 Coffman St Fl RECEPTION, Longmont, CO",
    "location": {
      "latitude": 0,
      "longitude": 0
    }
  },
  {
    "name": "Chaffee County Public Health",
    "address": "448 E 1st St Ste 137, Salida, CO",
    "location": {
      "latitude": 0,
      "longitude": 0
    }
  },
  {
    "name": "Cheyenne County Public Health",
    "address": "W 6th St N, Cheyenne Wells, CO",
    "location": {
      "latitude": "38.8237247",
      "longitude": "-102.355554"
    }
  },
  {
    "name": "Broomfield County Hhs",
    "address": "100 Spader Way, Broomfield, CO",
    "location": {
      "latitude": "39.91639415",
      "longitude": "-105.06652621972754"
    }
  },
  {
    "name": "Moffat County Public Health",
    "address": "580 Pershing St # 300, Craig, CO",
    "location": {}
  },
  {
    "name": "Clinica Family Health Lafayette",
    "address": "1735 S Public Rd, Lafayette, CO",
    "location": {
      "latitude": "39.98294185",
      "longitude": "-105.09134776796516"
    }
  },
  {
    "name": "Clinica Family Health Pecos",
    "address": "1701 W 72nd Ave Fl 2, Denver, CO",
    "location": {
      "latitude": 0,
      "longitude": 0
    }
  },
  {
    "name": "Costilla County Public Health",
    "address": "233 Main St Ste C, San Luis, CO",
    "location": {
      "latitude": 0,
      "longitude": 0
    }
  },
  {
    "name": "Custer County Public Health Agency",
    "address": "10 Hermit Ln Unit 5, Silver Cliff, CO",
    "location": {
      "latitude": 0,
      "longitude": 0
    }
  },
  {
    "name": "Delta County Public Health Dept",
    "address": "255 W 6th St, Delta, CO",
    "location": {
      "latitude": "38.73912259600412",
      "longitude": "-108.0731199922143"
    }
  },
  {
    "name": "El Paso County Public Health",
    "address": "1675 W Garden Of The Gods Rd Ste 2044, Colorado Springs, CO",
    "location": {
      "latitude": "38.8949636",
      "longitude": "-104.8605775"
    }
  },
  {
    "name": "El Paso County Public Health South",
    "address": "6436 S Us Hwy 85-87, Fountain, CO",
    "location": {
      "latitude": 0,
      "longitude": 0
    }
  },
  {
    "name": "Fremont County Department of Public Health & Environment",
    "address": "201 N 6th St, Canon City, CO",
    "location": {
      "latitude": "38.442022",
      "longitude": "-105.240201"
    }
  },
  {
    "name": "Garfield County Public Health - Glenwood Springs",
    "address": "2014 Blake Ave, Glenwood Springs, CO",
    "location": {
      "latitude": "39.531578499999995",
      "longitude": "-107.32237149612415"
    }
  },
  {
    "name": "Garfield County Public Health - Rifle",
    "address": "195 W 14th St #c Bldg , Rifle, CO",
    "location": {}
  },
  {
    "name": "Grand County Public Health",
    "address": "150 Moffat Ave, Hot Sulphur Springs, CO",
    "location": {
      "latitude": "40.0720115",
      "longitude": "-106.101903"
    }
  },
  {
    "name": "Las Animas-Huerfano Health - Walsenburg",
    "address": "119 E 5th St, Walsenburg, CO",
    "location": {
      "latitude": "37.62470536956533",
      "longitude": "-104.78096851371852"
    }
  },
  {
    "name": "Jefferson County Public Health",
    "address": "645 Parfet St, Lakewood, CO",
    "location": {
      "latitude": "39.72886755555556",
      "longitude": "-105.11953111111112"
    }
  },
  {
    "name": "Kiowa County Public Health",
    "address": "1309 Maine St, Eads, CO 81036",
    "location": {
      "latitude": "38.47916555102041",
      "longitude": "-102.78158091836735"
    }
  },
  {
    "name": "Kit Carson County Public Health Department",
    "address": "S 14th St, Burlington, CO",
    "location": {
      "latitude": "39.3009107",
      "longitude": "-102.2680396"
    }
  },
  {
    "name": "Valley Wide Health Systems La Junta",
    "address": "Belmont Ave, La Junta, CO",
    "location": {
      "latitude": "37.9816146",
      "longitude": "-103.5556241"
    }
  },
  {
    "name": "Lake County Public Health Agency",
    "address": "825 W 6th St, Leadville, CO",
    "location": {
      "latitude": 0,
      "longitude": 0
    }
  },
  {
    "name": "Larimer County Department of Health & Environment",
    "address": "1525 Blue Spruce Dr Fl 1, Fort Collins, CO",
    "location": {
      "latitude": 0,
      "longitude": 0
    }
  },
  {
    "name": "Las Animas-Huerfano Health Dept Trindad",
    "address": "412 Benedicta Ave, Trinidad, CO",
    "location": {
      "latitude": "37.17392479095489",
      "longitude": "-104.48898169781927"
    }
  },
  {
    "name": "Mesa County Public Health Department",
    "address": "510 29 1/2 Rd, Grand Junction, CO",
    "location": {
      "latitude": "39.07858245",
      "longitude": "-108.50418992493681"
    }
  },
  {
    "name": "Montezuma County Public Health Dept",
    "address": "106 W North St, Cortez, CO",
    "location": {
      "latitude": "37.3498105",
      "longitude": "-108.5870656"
    }
  },
  {
    "name": "Northeast Colorado Health Department",
    "address": "228 W Railroad Ave, Fort Morgan, CO",
    "location": {
      "latitude": "40.24839657142857",
      "longitude": "-103.80308757142856"
    }
  },
  {
    "name": "Northeast Colorado Health Department Holyoke",
    "address": "E Denver St Ste C, Holyoke, CO",
    "location": {
      "latitude": 0,
      "longitude": 0
    }
  },
  {
    "name": "Northeast Colorado Health Dept. Akron",
    "address": "482 Adams Ave, Akron, CO",
    "location": {
      "latitude": "40.16292518367347",
      "longitude": "-103.21413873469388"
    }
  },
  {
    "name": "Northeast Colorado Health Departmen",
    "address": "529 N Albany St Ste 1120, Yuma, CO",
    "location": {
      "latitude": 0,
      "longitude": 0
    }
  },
  {
    "name": "Valley Wide Health Systems",
    "address": "245 Vine Ave, Las Animas, CO",
    "location": {
      "latitude": "38.07077454545455",
      "longitude": "-103.22803145454546"
    }
  },
  {
    "name": "Northwest Colorado Health",
    "address": "745 Russell St, Craig, CO",
    "location": {
      "latitude": "40.51903567825948",
      "longitude": "-107.5459938292209"
    }
  },
  {
    "name": "Valley Wide Health Systems",
    "address": "903 S 12th St, Rocky Ford, CO",
    "location": {
      "latitude": "38.04433457142857",
      "longitude": "-103.72019787755102"
    }
  },
  {
    "name": "Northwest Colorado Health",
    "address": "940 Central Park Dr Suite 101, Steamboat Springs, CO",
    "location": {
      "latitude": 0,
      "longitude": 0
    }
  },
  {
    "name": "Otero County Health Department La Junta",
    "address": "13 W 3rd St Ste 111, La Junta, CO",
    "location": {
      "latitude": 0,
      "longitude": 0
    }
  },
  {
    "name": "Otero County Health Department",
    "address": "811 S 13th St, Rocky Ford, CO",
    "location": {
      "latitude": "38.04427998863637",
      "longitude": "-103.71876052272727"
    }
  },
  {
    "name": "Ouray County Public Health Agency",
    "address": "302 2nd St, Ouray, CO",
    "location": {
      "latitude": "38.0196907",
      "longitude": "-107.673129"
    }
  },
  {
    "name": "Park County Public Health",
    "address": "825 Clark St Unit A, Fairplay, CO",
    "location": {
      "latitude": 0,
      "longitude": 0
    }
  },
  {
    "name": "People's Clinic - Clinica Family Health",
    "address": "2525 13th St, Boulder, CO",
    "location": {
      "latitude": "40.023814",
      "longitude": "-105.2809402"
    }
  },
  {
    "name": "Salud Family Health Centers - Longmont",
    "address": "220 E Rogers Rd, Longmont, CO 80501",
    "location": {
      "latitude": "40.1628619",
      "longitude": "-105.0866145"
    }
  },
  {
    "name": "Prowers County Public Health",
    "address": "1001 S Main St Ste 2, Lamar, CO",
    "location": {
      "latitude": 0,
      "longitude": 0
    }
  },
  {
    "name": "Rio Blanco County Public Health Rangely",
    "address": "101 E Main St Ste 103, Rangely, CO",
    "location": {
      "latitude": 0,
      "longitude": 0
    }
  },
  {
    "name": "San Juan Basin Public Health",
    "address": "281 Sawyer Drive Suite 300, Durango, CO",
    "location": {
      "latitude": 0,
      "longitude": 0
    }
  },
  {
    "name": "San Juan County Public Health",
    "address": "1315 Snowden St, Silverton, CO",
    "location": {
      "latitude": "37.8138506",
      "longitude": "-107.6653603"
    }
  },
  {
    "name": "Summit County Public Health",
    "address": "360 Peak One Dr Ste 230, Frisco, CO",
    "location": {
      "latitude": 0,
      "longitude": 0
    }
  },
  {
    "name": "Tri-County Health Department",
    "address": "6162 S Willow Dr Suite 100, Greenwood Village, CO",
    "location": {
      "latitude": 0,
      "longitude": 0
    }
  },
  {
    "name": "Tri-County Health Department",
    "address": "15400 E 14th Pl Ste 115, Aurora, CO",
    "location": {
      "latitude": 0,
      "longitude": 0
    }
  },
  {
    "name": "Tri-County Health Department",
    "address": "410 S Wilcox St, Castle Rock, CO",
    "location": {
      "latitude": 0,
      "longitude": 0
    }
  },
  {
    "name": "Tri-County Health Department",
    "address": "4857 S Broadway, Englewood, CO",
    "location": {
      "latitude": "39.6300842",
      "longitude": "-104.9879879"
    }
  },
  {
    "name": "Tri-County Health Department",
    "address": "9350 Heritage Hills Cr, Lone Tree, CO",
    "location": {
      "latitude": 0,
      "longitude": 0
    }
  },
  {
    "name": "Tri-County Health Dept. Westminster",
    "address": "1401 W 122nd Ave Ste 200, Denver, CO",
    "location": {
      "latitude": 0,
      "longitude": 0
    }
  },
  {
    "name": "Weld County Department Of Public Health and Environment",
    "address": "1555 N 17th Ave, Greeley, CO",
    "location": {
      "latitude": 0,
      "longitude": 0
    }
  },
  {
    "name": "Valley Wide Edward M. Kennedy Center",
    "address": "925 2nd Ave, Monte Vista, CO",
    "location": {
      "latitude": "37.579278",
      "longitude": "-106.14637453061225"
    }
  },
  {
    "name": "Valley Wide Alamosa Family Medical Center",
    "address": "1710 1st St, Alamosa, CO",
    "location": {
      "latitude": "37.4708739",
      "longitude": "-105.857379"
    }
  },
  {
    "name": "Basin Clinic",
    "address": "421 Adams St, Naturita, CO",
    "location": {
      "latitude": "38.21878547613801",
      "longitude": "-108.57539351323909"
    }
  },
  {
    "name": "Valley Wide Health Systems Ordway",
    "address": "319 Main St, Ordway, CO",
    "location": {
      "latitude": "38.2179793877551",
      "longitude": "-103.75647587755101"
    }
  },
  {
    "name": "Hinsdale County Public Health",
    "address": "700 N Henson St Bldg 1, Lake City, CO",
    "location": {
      "latitude": 0,
      "longitude": 0
    }
  },
  {
    "name": "Meeker Family Health Center",
    "address": "100 Pioneers Medical Center Drive, Meeker, CO 81641",
    "location": {
      "latitude": "40.04635295",
      "longitude": "-107.88137273731118"
    }
  },
  {
    "name": "Mountain Family Health Center",
    "address": "123 Emma Rd Suite 106, Basalt, CO",
    "location": {
      "latitude": 0,
      "longitude": 0
    }
  },
  {
    "name": "Mountain Family Health Center - Rifle Integrated Health Center",
    "address": "195 14th St, Rifle, CO 81650",
    "location": {
      "latitude": "39.5415515",
      "longitude": "-107.78507204852941"
    }
  },
  {
    "name": "Pueblo Community Health Center",
    "address": "300 Colorado Ave, Pueblo, CO",
    "location": {
      "latitude": "38.257573",
      "longitude": "-104.6238"
    }
  },
  {
    "name": "Uncompahgre Medical Center",
    "address": "1350 Aspen St, Norwood, CO",
    "location": {
      "latitude": 0,
      "longitude": 0
    }
  },
  {
    "name": "Peak Vista Health Center At Limon",
    "address": "1st St, Limon, CO",
    "location": {
      "latitude": "39.260902",
      "longitude": "-103.6865648"
    }
  },
  {
    "name": "Peak Vista Health Center At Kiowa",
    "address": "320 Comanche St, Kiowa, CO",
    "location": {
      "latitude": "39.346511173233736",
      "longitude": "-104.46411314617696"
    }
  },
  {
    "name": "STRIDE CHC - Wheat Ridge",
    "address": "7495 W. 29th Ave, Wheat Ridge, CO 80033",
    "location": {
      "latitude": "39.75854412244898",
      "longitude": "-105.07957730612246"
    }
  },
  {
    "name": "Sheridan Health Services",
    "address": "4107b S Federal Blvd, Englewood, CO",
    "location": {
      "latitude": "39.6338854",
      "longitude": "-105.0253879"
    }
  },
  {
    "name": "CU Family Health Clinic",
    "address": "3525 W Oxford Ave Unit G-3, Denver, CO",
    "location": {
      "latitude": 0,
      "longitude": 0
    }
  },
  {
    "name": "High Plains Community Health Center",
    "address": "201 Kendall Dr, Lamar, CO",
    "location": {
      "latitude": "38.0691239",
      "longitude": "-102.6100736"
    }
  },
  {
    "name": "High Plains Chc - Holly Clinic",
    "address": "409 West Colorado, Holly, CO, 81047",
    "location": {
      "latitude": 0,
      "longitude": 0
    }
  },
  {
    "name": "High Plains Family Center",
    "address": "200 Kendall Dr, Lamar, CO",
    "location": {
      "latitude": "38.068875",
      "longitude": "-102.610386"
    }
  },
  {
    "name": "High Plains Chc - Wiley Clinic",
    "address": "302 Main St, Wiley, CO",
    "location": {
      "latitude": "38.15368632653061",
      "longitude": "-102.71986702040816"
    }
  },
  {
    "name": "Middle Park Health Kremmling Clinic",
    "address": "214 4th St, Kremmling, CO 80459",
    "location": {
      "latitude": "40.05702585",
      "longitude": "-106.39064873323161"
    }
  },
  {
    "name": "River Valley Family Health Center Olathe",
    "address": "308 Main St, Olathe, CO",
    "location": {
      "latitude": "38.60613",
      "longitude": "-107.98338623637184"
    }
  },
  {
    "name": "River Valley Family Health Center Montrose",
    "address": "1010 S Rio Grande Ave, Montrose, CO",
    "location": {
      "latitude": 0,
      "longitude": 0
    }
  },
  {
    "name": "Stride Chc Peoria",
    "address": "3292 Peoria St, Aurora, CO",
    "location": {
      "latitude": "39.76365755",
      "longitude": "-104.84538690984724"
    }
  },
  {
    "name": "Sunrise Loveland Community Health Center",
    "address": "302 3rd St SE, Loveland, CO",
    "location": {
      "latitude": "40.39034593877551",
      "longitude": "-105.07215469387755"
    }
  },
  {
    "name": "Telluride Medical Center",
    "address": "500 W Pacific Ave, Telluride, CO",
    "location": {
      "latitude": "37.9374706",
      "longitude": "-107.81633582180518"
    }
  },
  {
    "name": "Eastern Plains Medical Clinic",
    "address": "560 Crystola St, Calhan, CO",
    "location": {
      "latitude": 0,
      "longitude": 0
    }
  },
  {
    "name": "Mountain Family Health Center",
    "address": "1905 Blake Ave Ste 101, Glenwood Springs, CO",
    "location": {
      "latitude": 0,
      "longitude": 0
    }
  },
  {
    "name": "Clinica Family Health Thornton",
    "address": "8990 Washington St, Thornton, CO",
    "location": {
      "latitude": "39.8595528",
      "longitude": "-104.97510937481113"
    }
  },
  {
    "name": "La Jara Medical Clinic",
    "address": "509 Main St, La Jara, CO",
    "location": {
      "latitude": 0,
      "longitude": 0
    }
  },
  {
    "name": "Antonito Medical Clinic",
    "address": "115 Main St, Antonito, CO",
    "location": {
      "latitude": "37.0709217",
      "longitude": "-106.011945"
    }
  },
  {
    "name": "Prowers Medical Center",
    "address": "401 Kendall Dr, Lamar, CO 81052",
    "location": {
      "latitude": "38.0702066",
      "longitude": "-102.61081026807844"
    }
  },
  {
    "name": "Health Center At Auraria",
    "address": "955 Lawrence Way Plaza Bldg Ste 150, Denver, CO",
    "location": {
      "latitude": 0,
      "longitude": 0
    }
  },
  {
    "name": "Lowry Family Health Center",
    "address": "1001 Yosemite St, Denver, CO",
    "location": {
      "latitude": "39.73024282254318",
      "longitude": "-104.88548320111529"
    }
  },
  {
    "name": "Webb Adult Clinic",
    "address": "301 W 6th Ave Fl 2, Denver, CO",
    "location": {
      "latitude": 0,
      "longitude": 0
    }
  },
  {
    "name": "Valley Wide Health Systems Canon City",
    "address": "121 N 6th St, Canon City, CO",
    "location": {
      "latitude": "38.4412970027792",
      "longitude": "-105.2396559112132"
    }
  },
  {
    "name": "Rocky Mountain Primary Care - Partners In Health",
    "address": "3520 W 92nd Ave, Suite 104 Westminster, CO 80031",
    "location": {
      "latitude": 0,
      "longitude": 0
    }
  },
  {
    "name": "Every Child Pediatrics",
    "address": "9197 Grant Street, Suite 100 Thornton, CO 80229",
    "location": {
      "latitude": 0,
      "longitude": 0
    }
  },
  {
    "name": "Peak Vista Community Health Centers at Academy",
    "address": "3207 N Academy Blvd, Suite 3100-3500,\nColorado Springs, CO 80917",
    "location": {
      "latitude": 0,
      "longitude": 0
    }
  },
  {
    "name": "Clinica Colorado",
    "address": "8300 Alcott St Ste 300, Westminster, CO",
    "location": {
      "latitude": 0,
      "longitude": 0
    }
  },
  {
    "name": "QwikCareMD",
    "address": "5799 Stetson Hills Blvd, Colorado Springs, CO 80917",
    "location": {
      "latitude": "38.9121415",
      "longitude": "-104.7267433"
    }
  },
  {
    "name": "Gunnison Valley Family Physicians",
    "address": "130 E Virginia Ave, Gunnison, CO 81230",
    "location": {
      "latitude": "38.5456112",
      "longitude": "-106.9266366"
    }
  },
  {
    "name": "Southlands Primary Care",
    "address": "6069 S Southlands Pkwy, Aurora, CO 80016",
    "location": {
      "latitude": 0,
      "longitude": 0
    }
  },
  {
    "name": "Juniper Family Medicine",
    "address": "735 White Ave, Grand Junction, CO 81501",
    "location": {
      "latitude": "39.069079849999994",
      "longitude": "-108.56002564974023"
    }
  },
  {
    "name": "Family Physicians Of Western Colorado",
    "address": "3150 N 12th St, Grand Junction, CO",
    "location": {
      "latitude": "39.0965283",
      "longitude": "-108.55150696676496"
    }
  },
  {
    "name": "Peak Vista Women's Health Center",
    "address": "225 S Union Blvd 2nd FL, Colorado Springs, CO 80910",
    "location": {
      "latitude": 0,
      "longitude": 0
    }
  },
  {
    "name": "Peak Vista Convenient Care Center",
    "address": "3205 N Academy Blvd Ste 100B, Colorado Springs, CO",
    "location": {
      "latitude": 0,
      "longitude": 0
    }
  },
  {
    "name": "Himalaya Family Medicine Clinic",
    "address": "1550 S Potomac St St Ste 250, Aurora, CO",
    "location": {
      "latitude": 0,
      "longitude": 0
    }
  },
  {
    "name": "Matthews-Vu Medical Group Pediatric",
    "address": "4190 E Woodmen Rd Ste 100, Colorado Springs, CO",
    "location": {
      "latitude": 0,
      "longitude": 0
    }
  },
  {
    "name": "Matthews-Vu Medical Group Pediatric",
    "address": "4190 E Woodmen Rd Ste 100, Colorado Springs, CO",
    "location": {
      "latitude": 0,
      "longitude": 0
    }
  },
  {
    "name": "Peak Vista Health Center At International Circle",
    "address": "2828 International Cir Ste 160, Colorado Springs, CO",
    "location": {
      "latitude": 0,
      "longitude": 0
    }
  },
  {
    "name": "Button Family Practice",
    "address": "715 S 9th St, Canon City, CO",
    "location": {
      "latitude": "38.435412458248926",
      "longitude": "-105.232055"
    }
  },
  {
    "name": "Fraser Medical Clinic",
    "address": "45 Co Rd 804 #210, Winter Park, CO 80482",
    "location": {}
  },
  {
    "name": "Cortez Integrated Healthcare",
    "address": "691 E Empire St, Cortez, CO",
    "location": {
      "latitude": "37.3564018",
      "longitude": "-108.5762441"
    }
  },
  {
    "name": "La Plata Integrated Healthcare",
    "address": "1970 E 3rd Ave, Durango, CO",
    "location": {
      "latitude": 0,
      "longitude": 0
    }
  },
  {
    "name": "Peak Vista Lane Family Health Center",
    "address": "4863 N Nevada Ave Fl 2, Colorado Springs, CO",
    "location": {
      "latitude": 0,
      "longitude": 0
    }
  },
  {
    "name": "Peak Vista Health Center At Wahsatch",
    "address": "722 S Wahsatch Ave Fl 1, Colorado Springs, CO",
    "location": {
      "latitude": 0,
      "longitude": 0
    }
  },
  {
    "name": "Sunrise Community Clinic",
    "address": "1010 A St, Greeley, CO 80631",
    "location": {
      "latitude": "40.43472835",
      "longitude": "-104.69621895577251"
    }
  },
  {
    "name": "Mountain Family Health Center Edwards",
    "address": "320 Beard Creek Rd, Edwards, CO 81632",
    "location": {
      "latitude": "39.6526499",
      "longitude": "-106.594507"
    }
  },
  {
    "name": "Thompson River Pediatrics",
    "address": "4435 Ronald Reagan Blvd, Johnstown, CO 80534",
    "location": {
      "latitude": "40.4038216",
      "longitude": "-104.9726226"
    }
  },
  {
    "name": "Marillac Health - Grand Junction",
    "address": "2333 N 6th St, Grand Junction, CO",
    "location": {
      "latitude": "39.08909645",
      "longitude": "-108.56277465816886"
    }
  },
  {
    "name": "Matthews Vu Medical Group SE",
    "address": "1050 S Academy Blvd Ste 140, Colorado Springs, CO",
    "location": {
      "latitude": 0,
      "longitude": 0
    }
  },
  {
    "name": "Banner Health Center Lady Moon",
    "address": "4700 Lady Moon Dr, Fort Collins, CO",
    "location": {
      "latitude": "40.521082",
      "longitude": "-105.0091269923357"
    }
  },
  {
    "name": "Peak Vista APRN Fellowship",
    "address": "225 S Union Blvd, 1st Floor, Colorado Springs, CO 80910",
    "location": {
      "latitude": 0,
      "longitude": 0
    }
  },
  {
    "name": "St. Anthony North Family Medicine Orchard",
    "address": "14300 Orchard Pkwy, Westminster, CO 80023",
    "location": {
      "latitude": "39.956566949999996",
      "longitude": "-104.99113206086528"
    }
  },
  {
    "name": "Colorado Mountain Medical Eagle",
    "address": "377 Sylvan Lake Rd #210, Eagle, CO 81631",
    "location": {}
  },
  {
    "name": "STRIDE CHC - Del Mar",
    "address": "10680 Del Mar Pkwy, Aurora, CO 80010",
    "location": {
      "latitude": "39.7441883",
      "longitude": "-104.8739725"
    }
  },
  {
    "name": "Whole Health Family Medicine Clinic",
    "address": "1305 Escalante Dr # 205, Durango, CO",
    "location": {}
  },
  {
    "name": "Heartlight Family Clinic",
    "address": "1001 S Perry St Ste 104B, Castle Rock, CO",
    "location": {
      "latitude": 0,
      "longitude": 0
    }
  },
  {
    "name": "A Kidz Clinic",
    "address": "360 E 8th St, Delta, CO",
    "location": {
      "latitude": "38.736548798639845",
      "longitude": "-108.06683316570117"
    }
  },
  {
    "name": "Peak Vista Community Health Centers - Health Center at Printers Parkway, 340",
    "address": "340 Printers Pkwy, Colorado Springs, CO 80910",
    "location": {
      "latitude": "38.82626210193255",
      "longitude": "-104.78584801969102"
    }
  },
  {
    "name": "Mainstreet Pediatrics",
    "address": "9235 Crown Crest Blvd #100, Parker, CO 80138",
    "location": {}
  },
  {
    "name": "Pinnacle Pediatrics and Internal Medicine",
    "address": "13648 Orchard Parkway, Suite 900, Westminster, CO, 80023",
    "location": {
      "latitude": 0,
      "longitude": 0
    }
  },
  {
    "name": "Every Child Pediatrics - Olympian Wellness Center",
    "address": "1300 S Sable Blvd Aurora, CO 80012",
    "location": {
      "latitude": 0,
      "longitude": 0
    }
  },
  {
    "name": "Roaring Fork Family Practice",
    "address": "978 Euclid Ave, Carbondale, CO, 81623",
    "location": {
      "latitude": "39.398811666588045",
      "longitude": "-107.21748141860665"
    }
  },
  {
    "name": "St. Thomas More Physician Group Family Medicine",
    "address": "1338 Phay Ave CaÃ±on City, CO 81212",
    "location": {
      "latitude": "38.45471875",
      "longitude": "-105.23111689959242"
    }
  },
  {
    "name": "Peak Vista Health Center At Jet Wing",
    "address": "1815 Jet Wing Dr, Colorado Springs, CO",
    "location": {
      "latitude": "38.80705205",
      "longitude": "-104.74031562055056"
    }
  },
  {
    "name": "Healthy Horizons Clinic",
    "address": "1700 W 100th Ave ste 101, Thornton, CO 80260",
    "location": {
      "latitude": 0,
      "longitude": 0
    }
  },
  {
    "name": "PEAK VISTA FAMILY HEALTH CENTER AT MITCHELL HS",
    "address": "4041 E San Miguel St. ,\nColorado Springs, CO 80909",
    "location": {
      "latitude": "38.850635759410686",
      "longitude": "-104.75149644449291"
    }
  },
  {
    "name": "Salud Aurora Community Health",
    "address": "562 Sable Blvd Ste 100, Aurora, CO",
    "location": {
      "latitude": 0,
      "longitude": 0
    }
  },
  {
    "name": "Marquez Family Medicine",
    "address": "1401 N. Elizabeth St. Suite A, Pueblo, CO",
    "location": {
      "latitude": 0,
      "longitude": 0
    }
  },
  {
    "name": "4 Corners Children's Clinic",
    "address": "555 Rivergate Lane B1-109 Durango, CO 81301",
    "location": {
      "latitude": 0,
      "longitude": 0
    }
  },
  {
    "name": "SCL Health Medical Group- Superior",
    "address": "3 Superior Dr Suite 400, Superior, CO 80027",
    "location": {
      "latitude": 0,
      "longitude": 0
    }
  },
  {
    "name": "Kaiser Permanente Briargate",
    "address": "4105 Briargate Pkwy Ste 125, Colorado Springs, CO 80920",
    "location": {
      "latitude": 0,
      "longitude": 0
    }
  },
  {
    "name": "Kaiser Permanente Brighton Medical Offices",
    "address": "859 S 4th Ave Brighton, CO 80601",
    "location": {
      "latitude": "39.9733361",
      "longitude": "-104.81875854716307"
    }
  },
  {
    "name": "Kaiser Permanente Loveland",
    "address": "4901 Thompson Pkwy, Johnstown, CO 80534",
    "location": {
      "latitude": "40.4064883",
      "longitude": "-104.98692809882691"
    }
  },
  {
    "name": "Kaiser Permanente Longmont",
    "address": "2345 Bent Way, Longmont, CO 80503",
    "location": {
      "latitude": "40.150270208045",
      "longitude": "-105.13227385614377"
    }
  },
  {
    "name": "Kaiser Permanente Parker",
    "address": "10168 Parkglenn Way, Parker, CO 80138",
    "location": {
      "latitude": "39.533523",
      "longitude": "-104.7694307"
    }
  },
  {
    "name": "Kaiser Permanente Premier",
    "address": "3920 N Union Blvd, Colorado Springs, CO 80907",
    "location": {
      "latitude": "38.8798655",
      "longitude": "-104.7950592"
    }
  },
  {
    "name": "Kaiser Permanente Parkside",
    "address": "215 S Parkside Dr, Colorado Springs, CO 80910",
    "location": {
      "latitude": "38.8280523",
      "longitude": "-104.7878182"
    }
  },
  {
    "name": "Kaiser Permanente Pueblo North Medical Offices",
    "address": "3670 Parker Blvd Ste 200, Pueblo, CO 81008",
    "location": {
      "latitude": 0,
      "longitude": 0
    }
  },
  {
    "name": "Kaiser Permanente Skyline",
    "address": "1375 E 20th Ave, Denver, CO 80205",
    "location": {
      "latitude": "39.7477655",
      "longitude": "-104.97117"
    }
  },
  {
    "name": "Kaiser Permanente Westminster",
    "address": "11245 Huron St, Denver, CO 80234",
    "location": {
      "latitude": "39.7612999",
      "longitude": "-104.9970666"
    }
  },
  {
    "name": "San Luis Valley Health Stuart Ave Clinic",
    "address": "2115 Stuart Ave, Alamosa, CO",
    "location": {
      "latitude": "37.47356109433344",
      "longitude": "-105.88912167284569"
    }
  },
  {
    "name": "Slv Health Monte Vista Community Cl",
    "address": "102 Chico Ct, Monte Vista, CO, 81144",
    "location": {
      "latitude": "37.579962",
      "longitude": "-106.15994181632654"
    }
  },
  {
    "name": "San Luis Valley Health Family Pract",
    "address": "2115 Stuart Ave, Alamosa, CO",
    "location": {
      "latitude": "37.47356109433344",
      "longitude": "-105.88912167284569"
    }
  },
  {
    "name": "Delta Health Family Medicine",
    "address": "555 Meeker St, Delta, CO",
    "location": {
      "latitude": "38.73977253061225",
      "longitude": "-108.06954202040816"
    }
  },
  {
    "name": "Delta Health West Elk Hotchkiss",
    "address": "230 Hotchkiss Ave, Hotchkiss, CO 81419",
    "location": {
      "latitude": 0,
      "longitude": 0
    }
  },
  {
    "name": "Children's Clinic of Pueblo",
    "address": "1600 N Grand Ave #240, Pueblo, CO 81003",
    "location": {}
  },
  {
    "name": "Southeast Denver Pediatrics",
    "address": "2121 S Oneida St #200, Denver, CO 80224",
    "location": {}
  },
  {
    "name": "Parker Pediatrics and Adolescents",
    "address": "10371 Parkglenn Way Suite 100, Parker, CO 80138",
    "location": {
      "latitude": 0,
      "longitude": 0
    }
  },
  {
    "name": "KidsFirst Pediatrics",
    "address": "96 Wadsworth Blvd, Suite 100, Lakewood, CO 80226",
    "location": {
      "latitude": 0,
      "longitude": 0
    }
  },
  {
    "name": "Hampden Medical Group",
    "address": "221 E Hampden Ave Ave, Englewood, CO",
    "location": {
      "latitude": 0,
      "longitude": 0
    }
  },
  {
    "name": "Pediatrics West",
    "address": "3555 Lutheran Pkwy, Suite 200, Wheat Ridge, CO 80033",
    "location": {
      "latitude": 0,
      "longitude": 0
    }
  },
  {
    "name": "UCHealth Memorial Administration Center",
    "address": "2420 E Pikes Peak Ave, Colorado Springs, CO",
    "location": {
      "latitude": 0,
      "longitude": 0
    }
  },
  {
    "name": "Spanish Peaks Family Clinic - Walsenburg",
    "address": "23400 US-160, Walsenburg, CO 81089",
    "location": {
      "latitude": "37.6245742",
      "longitude": "-104.781356"
    }
  },
  {
    "name": "Mt San Rafael Hospital Clinic",
    "address": "400 Benedicta Ave Ste E, Trinidad, CO",
    "location": {
      "latitude": 0,
      "longitude": 0
    }
  },
  {
    "name": "Highlands Family Medicine",
    "address": "4500 West 38th Ave Denver, 80212",
    "location": {
      "latitude": "39.769095",
      "longitude": "-105.0458537"
    }
  },
  {
    "name": "Pediatric Associates - Montrose Clinic",
    "address": "947 S 5th St, Montrose, CO 81401",
    "location": {
      "latitude": "38.47969117693752",
      "longitude": "-107.8667142384095"
    }
  },
  {
    "name": "Keene Clinic",
    "address": "190 S Main St, Keenesburg, CO",
    "location": {
      "latitude": 0,
      "longitude": 0
    }
  },
  {
    "name": "Grand River Health Clinic West",
    "address": "201 Sipprelle Drive, Parachute, CO, 81635",
    "location": {
      "latitude": 0,
      "longitude": 0
    }
  },
  {
    "name": "Emergi Medical Care Center",
    "address": "1080 Chinook Ln, Pueblo, CO 81001",
    "location": {
      "latitude": "38.28715506308585",
      "longitude": "-104.59850184688811"
    }
  },
  {
    "name": "Doctor's Care Clinic",
    "address": "609 W Littleton Blvd Blvd Ste 100, Littleton, CO",
    "location": {
      "latitude": 0,
      "longitude": 0
    }
  },
  {
    "name": "Focus On Kids Pediatrics",
    "address": "9200 W Cross Dr, Ste 100, Littleton, CO 80123",
    "location": {
      "latitude": 0,
      "longitude": 0
    }
  },
  {
    "name": "Family Physicians Of Greeley",
    "address": "2520 16th St, Greeley, CO",
    "location": {
      "latitude": "40.4136564",
      "longitude": "-104.68284"
    }
  },
  {
    "name": "Peak Pediatrics",
    "address": "3555 Lutheran Parkway #340 & 370 Wheat Ridge, Colorado 80033",
    "location": {}
  },
  {
    "name": "Peak Pediatrics",
    "address": "2900 E 136th Ave #201, Thornton, Colorado 80241",
    "location": {}
  },
  {
    "name": "Castle Valley Childrens Clinic - New Castle",
    "address": "820 Castle Valley Blvd Ste 204 \nNew Castle, Co 81647",
    "location": {
      "latitude": 0,
      "longitude": 0
    }
  },
  {
    "name": "Denver Osteopathic Clinic",
    "address": "1770 S Federal Blvd, Denver, CO",
    "location": {
      "latitude": 0,
      "longitude": 0
    }
  },
  {
    "name": "Walsh Medical Clinic",
    "address": "137 N Kansas St, Walsh, CO",
    "location": {
      "latitude": 0,
      "longitude": 0
    }
  },
  {
    "name": "Northeast Colorado Family Medicine Associates",
    "address": "1405 S 8th Ave Ste 103, Sterling, Colorado 80751",
    "location": {
      "latitude": 0,
      "longitude": 0
    }
  },
  {
    "name": "Arkansas Valley Family Practice Llc",
    "address": "2317 San Juan Ave, La Junta, CO",
    "location": {
      "latitude": "37.96653287755102",
      "longitude": "-103.54632183673469"
    }
  },
  {
    "name": "Pediatrics of Steamboat",
    "address": "940 Central Park Drive, Ste 201 Steamboat Springs, CO 80487",
    "location": {
      "latitude": 0,
      "longitude": 0
    }
  },
  {
    "name": "Western Colorado Pediatric Associates",
    "address": "3150 N 12th St, Grand Junction, CO 81506",
    "location": {
      "latitude": "39.0965283",
      "longitude": "-108.55150696676496"
    }
  },
  {
    "name": "Middle Park Health- Granby Clinic",
    "address": "1000 Granby Park Drive South, Granby, CO",
    "location": {
      "latitude": 0,
      "longitude": 0
    }
  },
  {
    "name": "Yampa Valley Medical Associates",
    "address": "940 Central Park Dr Ste 100, Steamboat Springs, CO",
    "location": {
      "latitude": 0,
      "longitude": 0
    }
  },
  {
    "name": "Pediatric Partners",
    "address": "1905 Blake Ave #201, Glenwood Springs, CO",
    "location": {}
  },
  {
    "name": "Family Care Specialists",
    "address": "201 Lamkin Street, Unit #101 Pueblo, Co 81003",
    "location": {}
  },
  {
    "name": "Children's Hospital Colorado - Aurora",
    "address": "13123 E 16th Ave, Aurora, CO",
    "location": {
      "latitude": "39.7422167",
      "longitude": "-104.83615269377671"
    }
  },
  {
    "name": "Every Child Pediatrics",
    "address": "9197 Grant St Ste 200, Thornton, CO",
    "location": {
      "latitude": 0,
      "longitude": 0
    }
  },
  {
    "name": "Sleeping Bear Pediatrics",
    "address": "405 Anglers Dr. Suite A, Steamboat Springs, CO 80488",
    "location": {
      "latitude": 0,
      "longitude": 0
    }
  },
  {
    "name": "Lowry Pediatrics",
    "address": "8101 E Lowry Blvd, Denver, CO 80230",
    "location": {
      "latitude": "39.71789585",
      "longitude": "-104.89500631965515"
    }
  },
  {
    "name": "Aspen Park Pediatrics",
    "address": "25797 Conifer Road Suite B110 Conifer, CO 80433",
    "location": {
      "latitude": 0,
      "longitude": 0
    }
  },
  {
    "name": "Southeast Denver Pediatrics",
    "address": "11960 Lioness Way #200, Parker, CO 80134",
    "location": {}
  },
  {
    "name": "CHPG Heart & Vascular Health Summit",
    "address": "360 Peak One Dr Ste 300, Frisco, CO 80443",
    "location": {
      "latitude": 0,
      "longitude": 0
    }
  },
  {
    "name": "Pediatric Associates of Durango",
    "address": "1199 Main Ave #205, Durango, CO 81301",
    "location": {}
  },
  {
    "name": "Pediatric Partners of the Southwest",
    "address": "810 E 3rd St #301, Durango, CO 81301",
    "location": {}
  },
  {
    "name": "Parkview Medical Center",
    "address": "400 W 16th St, Pueblo, CO",
    "location": {
      "latitude": 0,
      "longitude": 0
    }
  },
  {
    "name": "Peak Vista Community Health Center",
    "address": "350 Lyckman Dr, Fountain, CO",
    "location": {
      "latitude": "38.69351979850362",
      "longitude": "-104.70737220006137"
    }
  },
  {
    "name": "Pueblo Community Health Center - Colorado Avenue Clinic",
    "address": "300 Colorado Ave, Pueblo, CO 81004",
    "location": {
      "latitude": "38.257573",
      "longitude": "-104.6238"
    }
  },
  {
    "name": "Colorado Kids Pediatrics",
    "address": "2975 Roslyn Street, Suite 100, Denver, CO 80238",
    "location": {
      "latitude": 0,
      "longitude": 0
    }
  },
  {
    "name": "Ebert Family Clinic",
    "address": "730 N Summit Blvd Frisco, CO 80443",
    "location": {
      "latitude": "39.59273501629619",
      "longitude": "-106.09326551854727"
    }
  },
  {
    "name": "Ebert Family Clinic",
    "address": "730 N Summit Blvd Frisco, CO 80443",
    "location": {
      "latitude": "39.59273501629619",
      "longitude": "-106.09326551854727"
    }
  },
  {
    "name": "Cornerstone Family Practice",
    "address": "1411 S Potomac St STE 300, Aurora, CO",
    "location": {
      "latitude": 0,
      "longitude": 0
    }
  },
  {
    "name": "Fam Med Clinic For Health Equity",
    "address": "5250 Leetsdale Dr Dr Ste 110, Glendale, CO",
    "location": {
      "latitude": 0,
      "longitude": 0
    }
  },
  {
    "name": "Health Center at Myron Stratton",
    "address": "410 Gold Pass Heights,\nColorado Springs, CO 80906",
    "location": {
      "latitude": "38.793277",
      "longitude": "-104.820823"
    }
  },
  {
    "name": "Lincoln Community Hospital",
    "address": "111 6th St, Hugo, CO",
    "location": {
      "latitude": "39.13825745",
      "longitude": "-103.47337687214554"
    }
  },
  {
    "name": "Family Walk-In Clinic",
    "address": "2928 W 10th St, Greeley, CO",
    "location": {
      "latitude": "40.42291",
      "longitude": "-104.7310889"
    }
  },
  {
    "name": "Pueblo West Primary Care",
    "address": "729 E Spaulding Ave\nPueblo West, CO 81007",
    "location": {
      "latitude": 0,
      "longitude": 0
    }
  },
  {
    "name": "Every Child Pediatrics - Crawford Kids Clinic",
    "address": "1600 Florence St, Aurora, CO 80010",
    "location": {
      "latitude": "39.742096",
      "longitude": "-104.871595"
    }
  },
  {
    "name": "Eagle Valley Family Practice",
    "address": "377 Sylvan Lake Road Eagle, CO 81631",
    "location": {
      "latitude": "39.643539399999995",
      "longitude": "-106.83682480187738"
    }
  },
  {
    "name": "Miramont Family Medicine Snow Mesa",
    "address": "4674 Snow Mesa Drive Suite 140, Ft. Collins, CO",
    "location": {
      "latitude": 0,
      "longitude": 0
    }
  },
  {
    "name": "St. Vincent Family Health Center",
    "address": "735 US-24, Leadville, CO 80461",
    "location": {
      "latitude": "39.24066520100503",
      "longitude": "-106.29976532663316"
    }
  },
  {
    "name": "Memorial Regional Health - Craig CO",
    "address": "Medical Clinic in Medical Office Building 750 Hospital Loop Craig, CO 81625",
    "location": {
      "latitude": 0,
      "longitude": 0
    }
  },
  {
    "name": "Mercy Family Medicine Three Springs",
    "address": "1 Mercado St\nSte 160\nDurango, Colorado 81301-7309",
    "location": {
      "latitude": 0,
      "longitude": 0
    }
  },
  {
    "name": "Peak Vista Health Center at Divide",
    "address": "34 Hybrook Road South,Divide, CO 80814",
    "location": {
      "latitude": "38.9417503",
      "longitude": "-105.1545697"
    }
  },
  {
    "name": "Columbine Health Systems",
    "address": "802 West Drake Road, Suite 101\nFort Collins, CO, 80526",
    "location": {
      "latitude": 0,
      "longitude": 0
    }
  },
  {
    "name": "Animas Surgical Hospital",
    "address": "575 Rivergate Ln Ste 100, Durango, CO",
    "location": {
      "latitude": 0,
      "longitude": 0
    }
  },
  {
    "name": "Colorado Plains Medical Center",
    "address": "1000 Lincoln St, Fort Morgan, CO",
    "location": {
      "latitude": "40.2602608",
      "longitude": "-103.79549752845602"
    }
  },
  {
    "name": "Lutheran Medical Center",
    "address": "8300 W 38th Ave, Wheat Ridge, CO",
    "location": {
      "latitude": "39.76569225",
      "longitude": "-105.0899229640259"
    }
  },
  {
    "name": "Heart Of The Rockies Regional Medical Center",
    "address": "999 Rush Drive, Salida, CO, 81201",
    "location": {
      "latitude": 0,
      "longitude": 0
    }
  },
  {
    "name": "Kindred Hospital Denver",
    "address": "1920 N High St, Denver, CO",
    "location": {
      "latitude": 0,
      "longitude": 0
    }
  },
  {
    "name": "Middle Park Health Granby Hospital",
    "address": "1000 Granby Park Dr S, Granby, CO",
    "location": {
      "latitude": 0,
      "longitude": 0
    }
  },
  {
    "name": "Melissa Memorial Hospital",
    "address": "1001 E Johnson St, Holyoke, CO 80734",
    "location": {
      "latitude": "40.57892845",
      "longitude": "-102.2901346383556"
    }
  },
  {
    "name": "National Jewish Health",
    "address": "1400 Jackson St, Denver, CO",
    "location": {
      "latitude": "39.739206100000004",
      "longitude": "-104.9423724560041"
    }
  },
  {
    "name": "North Suburban Medical Center",
    "address": "9191 Grant St, Thornton, CO",
    "location": {
      "latitude": "39.8645116",
      "longitude": "-104.9859948316301"
    }
  },
  {
    "name": "UCHealth Poudre Valley Hospital",
    "address": "1024 S. Lemay Avenue Fort Collins, CO 80524",
    "location": {
      "latitude": "40.5719165",
      "longitude": "-105.05636311850762"
    }
  },
  {
    "name": "Rio Grande Hospital",
    "address": "310 County Rd 14, Del Norte, CO",
    "location": {
      "latitude": 0,
      "longitude": 0
    }
  },
  {
    "name": "Rose Medical Center",
    "address": "4567 E. 9th Ave. Denver, CO 80220",
    "location": {
      "latitude": "39.7316371",
      "longitude": "-104.9334075214867"
    }
  },
  {
    "name": "SE Colorado Hospital District",
    "address": "373 E 10th Ave, Springfield, CO",
    "location": {
      "latitude": "37.4046711",
      "longitude": "-102.61256567559087"
    }
  },
  {
    "name": "St. Anthony North Health Campus",
    "address": "14300 Orchard Pkwy, Westminster, CO",
    "location": {
      "latitude": "39.9555196",
      "longitude": "-104.9912433271392"
    }
  },
  {
    "name": "Swedish Medical Center",
    "address": "501 E Hampden Ave, Englewood, CO 80113",
    "location": {
      "latitude": "39.6542801",
      "longitude": "-104.98121539103656"
    }
  },
  {
    "name": "The Medical Center Of Aurora",
    "address": "1501 S Potomac St, Aurora, CO",
    "location": {
      "latitude": "39.7433104",
      "longitude": "-104.827935"
    }
  },
  {
    "name": "UCHealth University Of Colorado Hospital",
    "address": "12605 E 16th Ave, Aurora, CO",
    "location": {
      "latitude": "39.7425435",
      "longitude": "-104.841661"
    }
  },
  {
    "name": "Valley View Hospital",
    "address": "1906 Blake Ave, Glenwood Springs, CO",
    "location": {
      "latitude": "39.53302495",
      "longitude": "-107.32132759559556"
    }
  },
  {
    "name": "Wray Community District Hospital",
    "address": "1017 W 7th St, Wray, CO 80758",
    "location": {
      "latitude": "40.07620365",
      "longitude": "-102.23476901564177"
    }
  },
  {
    "name": "UCHealth Yampa Valley Medical Center",
    "address": "1024 Central Park Dr, Steamboat Springs, CO",
    "location": {
      "latitude": "40.463123499999995",
      "longitude": "-106.81487805370041"
    }
  },
  {
    "name": "Delta County Memorial Hospital",
    "address": "1501 E 3rd St, Delta, CO",
    "location": {
      "latitude": "38.7449589",
      "longitude": "-108.0480952"
    }
  },
  {
    "name": "Jackson County Public Health Agency",
    "address": "350 McKinley St, Walden, CO",
    "location": {
      "latitude": 0,
      "longitude": 0
    }
  },
  {
    "name": "Boulder Medical Center, P.C.",
    "address": "2750 Broadway, Boulder, CO",
    "location": {
      "latitude": "40.0264853",
      "longitude": "-105.2814982"
    }
  },
  {
    "name": "Clinix Health Services Of Colorado",
    "address": "7030 S Yosemite St St, Englewood, CO",
    "location": {
      "latitude": 0,
      "longitude": 0
    }
  },
  {
    "name": "Denver Sheriff Health Services",
    "address": "490 W Colfax Ave, Denver, CO",
    "location": {
      "latitude": "39.7392141",
      "longitude": "-104.993557"
    }
  },
  {
    "name": "Glenwood Medical Associates",
    "address": "1830 Blake Ave, Glenwood Springs, CO",
    "location": {
      "latitude": "39.53401852427707",
      "longitude": "-107.3226148656235"
    }
  },
  {
    "name": "Health District Of Northern Larimer",
    "address": "202 Bristlecone Dr, Fort Collins, CO",
    "location": {
      "latitude": "40.6070605704698",
      "longitude": "-105.07485036912752"
    }
  },
  {
    "name": "JB Pharmacy Inc",
    "address": "915 W Northern Ave, Pueblo, CO",
    "location": {
      "latitude": "38.24427",
      "longitude": "-104.621499"
    }
  },
  {
    "name": "King Soopers Pharmacy #16",
    "address": "19711 E Smoky Hill Rd Rd, Aurora, CO",
    "location": {
      "latitude": 0,
      "longitude": 0
    }
  },
  {
    "name": "King Soopers Pharmacy #53",
    "address": "6930 N Academy Blvd, Colorado Springs, CO",
    "location": {
      "latitude": 0,
      "longitude": 0
    }
  },
  {
    "name": "King Soopers Pharmacy #006",
    "address": "1750 W Uintah St, Colorado Springs, CO",
    "location": {
      "latitude": "38.84899905",
      "longitude": "-104.84716934587601"
    }
  },
  {
    "name": "King Soopers Pharmacy No. 75",
    "address": "12959 S Parker Rd, Parker, CO",
    "location": {
      "latitude": "39.479707250000004",
      "longitude": "-104.76065454725321"
    }
  },
  {
    "name": "King Soopers Pharmacy #98",
    "address": "6030 Stetson Hills Blvd, Colorado Springs, CO",
    "location": {
      "latitude": "38.9123312",
      "longitude": "-104.7159824864454"
    }
  },
  {
    "name": "Lifehealth",
    "address": "5951 S Middlefield Rd Rd Ste 102, Littleton, CO",
    "location": {
      "latitude": 0,
      "longitude": 0
    }
  },
  {
    "name": "Denver West Family Practice & Internal Medicine",
    "address": "1707 Cole Boulevard, Suite 150 Golden, CO 80401",
    "location": {
      "latitude": 0,
      "longitude": 0
    }
  },
  {
    "name": "Evans Medical Center",
    "address": "4700 E Iliff Ave, Denver, CO",
    "location": {
      "latitude": "39.67473553847982",
      "longitude": "-104.9336277812445"
    }
  },
  {
    "name": "Rocky Vista Health Center",
    "address": "8400 S. Chambers Road, Parker, CO, 80134",
    "location": {
      "latitude": "39.4976166",
      "longitude": "-104.803915"
    }
  },
  {
    "name": "South Denver Internal Med & Peds",
    "address": "10103 Ridgegate Pkwy Ste 114, Lone Tree, CO",
    "location": {
      "latitude": 0,
      "longitude": 0
    }
  },
  {
    "name": "South Metro Fire Rescue",
    "address": "9195 E Mineral Ave Ave, Englewood, CO",
    "location": {
      "latitude": 0,
      "longitude": 0
    }
  },
  {
    "name": "Summit Medical Clinic",
    "address": "1380 E Fillmore St Ste 100, Colorado Springs, CO",
    "location": {
      "latitude": 0,
      "longitude": 0
    }
  },
  {
    "name": "University Of Colorado Anschutz",
    "address": "12348 E Montview Blvd, Aurora, CO",
    "location": {
      "latitude": "39.7468695",
      "longitude": "-104.8437953854692"
    }
  },
  {
    "name": "Safeway Pharmacy #1656",
    "address": "1600 Coalton Rd, Superior, CO",
    "location": {
      "latitude": "39.9282165",
      "longitude": "-105.14646638539811"
    }
  },
  {
    "name": "Safeway Pharmacy #1045",
    "address": "1300 Dexter St, Fort Lupton, CO 80621",
    "location": {
      "latitude": "40.078768600000004",
      "longitude": "-104.8024075363964"
    }
  },
  {
    "name": "Safeway Pharmacy #1248",
    "address": "2660 N Federal Blvd, Denver, CO",
    "location": {
      "latitude": 0,
      "longitude": 0
    }
  },
  {
    "name": "Safeway Pharmacy #1499",
    "address": "2890 N Powers Blvd, Colorado Springs, CO",
    "location": {
      "latitude": "38.87384635",
      "longitude": "-104.7224325760061"
    }
  },
  {
    "name": "Safeway Pharmacy #0801",
    "address": "311 W College Dr, Durango, CO",
    "location": {
      "latitude": "37.2719665",
      "longitude": "-107.8851005"
    }
  },
  {
    "name": "Safeway Pharmacy #914",
    "address": "2321 W Eisenhower Blvd, Loveland, CO",
    "location": {
      "latitude": "40.4073381",
      "longitude": "-105.111437"
    }
  },
  {
    "name": "Safeway Pharmacy #1532",
    "address": "219 S Elizabeth St, Elizabeth, CO, 80107",
    "location": {
      "latitude": "39.3568689",
      "longitude": "-104.6083152"
    }
  },
  {
    "name": "Safeway Pharmacy #1928",
    "address": "18730 E Hampden Ave, Aurora, CO",
    "location": {
      "latitude": "39.6512816",
      "longitude": "-104.769609"
    }
  },
  {
    "name": "Safeway",
    "address": "1535 Main St, Windsor, CO",
    "location": {
      "latitude": "40.4779686",
      "longitude": "-104.9280571"
    }
  },
  {
    "name": "Safeway Pharmacy #0836",
    "address": "1008 N Summit Blvd, Frisco, CO",
    "location": {
      "latitude": "39.586999",
      "longitude": "-106.0945854"
    }
  },
  {
    "name": "Safeway Pharmacy #1975",
    "address": "6925 Mesa Ridge Pkwy, Fountain, CO",
    "location": {
      "latitude": "38.71619895",
      "longitude": "-104.69897838821903"
    }
  },
  {
    "name": "Safeway Pharmacy #1998",
    "address": "7561 W 80th Ave, Arvada, CO",
    "location": {
      "latitude": "39.8418614",
      "longitude": "-105.0865577"
    }
  },
  {
    "name": "Safeway Pharmacy #0722",
    "address": "457 W Main St, Trinidad, CO",
    "location": {
      "latitude": "37.1682559",
      "longitude": "-104.50962360345187"
    }
  },
  {
    "name": "Safeway Pharmacy #2342",
    "address": "11088 W Jewell Ave, Lakewood, CO",
    "location": {
      "latitude": "39.682036333333336",
      "longitude": "-105.12369122222222"
    }
  },
  {
    "name": "Safeway Pharmacy #0244",
    "address": "3800 W 44th Ave, Denver, CO",
    "location": {
      "latitude": "39.776215",
      "longitude": "-105.0369437"
    }
  },
  {
    "name": "Safeway Pharmacy #2714",
    "address": "6220 E 14th Ave, Denver, CO",
    "location": {
      "latitude": "39.73825014924118",
      "longitude": "-104.91583620233965"
    }
  },
  {
    "name": "Safeway Pharmacy #2722",
    "address": "8355 N Rampart Range Rd, Littleton, CO",
    "location": {
      "latitude": 0,
      "longitude": 0
    }
  },
  {
    "name": "Safeway Pharmacy #2792",
    "address": "27152 Main St, Conifer, CO",
    "location": {
      "latitude": "39.5273031",
      "longitude": "-105.30338904552113"
    }
  },
  {
    "name": "Safeway Pharmacy #0322",
    "address": "1701 Jackson St, Golden, CO",
    "location": {
      "latitude": "39.7521033",
      "longitude": "-105.21555491475185"
    }
  },
  {
    "name": "Safeway Pharmacy #2817",
    "address": "232 G St, Salida, CO",
    "location": {
      "latitude": "38.53561424489796",
      "longitude": "-105.99430771428571"
    }
  },
  {
    "name": "Safeway Pharmacy #3729",
    "address": "1231 S Prairie Ave, Pueblo, CO",
    "location": {
      "latitude": "38.2448548",
      "longitude": "-104.644322429742"
    }
  },
  {
    "name": "Safeway Pharmacy #0041",
    "address": "13111 W Alameda Pkwy, Lakewood, CO",
    "location": {
      "latitude": "39.6984097",
      "longitude": "-105.145678"
    }
  },
  {
    "name": "UCHealth Highlands Ranch Hospital",
    "address": "1500 Park Central Dr, Littleton, CO",
    "location": {
      "latitude": 0,
      "longitude": 0
    }
  },
  {
    "name": "Safeway Pharmacy #2910",
    "address": "1632 Hover St, Longmont, CO",
    "location": {
      "latitude": "40.18712111367525",
      "longitude": "-105.13081316241298"
    }
  },
  {
    "name": "Arbor Family Medicine",
    "address": "3655 E 104th Ave # A, Thornton, CO 80233",
    "location": {}
  },
  {
    "name": "San Luis Valley Health",
    "address": "1921 Main St, Alamosa, CO",
    "location": {
      "latitude": "37.4800953",
      "longitude": "-105.9062476"
    }
  },
  {
    "name": "Bloom Healthcare Physician House Calls",
    "address": "10900 W 44th Ave Unit 200, Wheat Ridge, CO",
    "location": {
      "latitude": 0,
      "longitude": 0
    }
  },
  {
    "name": "Clearspring Pharmacy",
    "address": "201 University Blvd Ste 105, Denver, CO",
    "location": {
      "latitude": 0,
      "longitude": 0
    }
  },
  {
    "name": "Good Day Pharmacy Wellington",
    "address": "7702 5th St, Wellington, CO 80549",
    "location": {
      "latitude": "40.703948",
      "longitude": "-105.001992"
    }
  },
  {
    "name": "CHPG Primary Care Southmoor",
    "address": "7000 E Hampden Ave Ste 200, Denver, CO 80224",
    "location": {
      "latitude": 0,
      "longitude": 0
    }
  },
  {
    "name": "Hoffman Drug",
    "address": "900 Main St, Limon, CO",
    "location": {
      "latitude": "39.263091",
      "longitude": "-103.689067"
    }
  },
  {
    "name": "Capital Heights Pharmacy",
    "address": "1200 Madison St, Denver, CO",
    "location": {
      "latitude": "39.735233",
      "longitude": "-104.946069"
    }
  },
  {
    "name": "Clearspring Pharmacy Littleton",
    "address": "8031 Southpark Cir Cir Ste B, Littleton, CO",
    "location": {
      "latitude": 0,
      "longitude": 0
    }
  },
  {
    "name": "Byers Peak Family Medicine",
    "address": "78878 Us Highway 40, Winter Park, Colorado 80482",
    "location": {
      "latitude": 0,
      "longitude": 0
    }
  },
  {
    "name": "Kindred Hospital Of Aurora",
    "address": "700 Potomac St St Fl 2, Aurora, CO",
    "location": {
      "latitude": 0,
      "longitude": 0
    }
  },
  {
    "name": "Good Day Pharmacy Eaton",
    "address": "180 S Elm Ave, Eaton, CO",
    "location": {
      "latitude": 0,
      "longitude": 0
    }
  },
  {
    "name": "Good Day Pharmacy Longmont",
    "address": "1749 Main St, Longmont, CO 80501",
    "location": {
      "latitude": "40.1906064",
      "longitude": "-105.1028517"
    }
  },
  {
    "name": "Good Samaritan Outpatient Pharmacy",
    "address": "200 Exempla Circle, Lafayette, CO 80026",
    "location": {
      "latitude": "39.96976445",
      "longitude": "-105.08660463304719"
    }
  },
  {
    "name": "Shavano Pharmacy",
    "address": "415 US Hwy 24, Buena Vista, CO",
    "location": {
      "latitude": "38.84565409873409",
      "longitude": "-106.13458841760868"
    }
  },
  {
    "name": "Saint Joseph Pharmacy",
    "address": "1375 E 19th Ave Suite 1665, Denver, CO 80218",
    "location": {
      "latitude": 0,
      "longitude": 0
    }
  },
  {
    "name": "Genoa Healthcare #00012",
    "address": "8989 Huron St Ste 204, Thornton, CO",
    "location": {
      "latitude": 0,
      "longitude": 0
    }
  },
  {
    "name": "Advanced Urgent Care and Occupational Medicine",
    "address": "2801 Purcell St, Brighton, CO",
    "location": {
      "latitude": 0,
      "longitude": 0
    }
  },
  {
    "name": "Genoa Healthcare #20155",
    "address": "821 E Railroad Ave Ste 154, Fort Morgan, CO",
    "location": {
      "latitude": 0,
      "longitude": 0
    }
  },
  {
    "name": "Mountain Vista Family Practice",
    "address": "7761 Shaffer Pkwy Suite 225, Littleton, CO 80127",
    "location": {
      "latitude": 0,
      "longitude": 0
    }
  },
  {
    "name": "Advanced Health Solutions LLC",
    "address": "13710 E Rice Pl, Aurora, CO 80015",
    "location": {
      "latitude": 0,
      "longitude": 0
    }
  },
  {
    "name": "Cor Medical at CenturyLink",
    "address": "700 W Mineral Ave, Littleton, CO 80120",
    "location": {
      "latitude": "39.57159435",
      "longitude": "-104.99762653305294"
    }
  },
  {
    "name": "Social Remedy",
    "address": "1262 Bergen Parkway, Suite E106, Evergreen, CO 80439",
    "location": {
      "latitude": 0,
      "longitude": 0
    }
  },
  {
    "name": "Health Now Family Practice + Walk In",
    "address": "9137 E Mineral Cir Cir Ste 110, Englewood, CO",
    "location": {
      "latitude": 0,
      "longitude": 0
    }
  },
  {
    "name": "Ninth Avenue Internal Medicine",
    "address": "4500 East 9th Avenue, Suite 140, Denver, CO 80220",
    "location": {
      "latitude": 0,
      "longitude": 0
    }
  },
  {
    "name": "Next Door Health Care, LLC",
    "address": "190 S 1st St, Bennett, CO",
    "location": {
      "latitude": 0,
      "longitude": 0
    }
  },
  {
    "name": "Valley Pharmacy",
    "address": "4493 Bent Brothers Blvd, Colorado City, CO",
    "location": {
      "latitude": "37.94567435952963",
      "longitude": "-104.83664007147273"
    }
  },
  {
    "name": "Rocky Mountain Gastroenterology",
    "address": "10001 Washington St, Thornton, CO 80229",
    "location": {
      "latitude": "39.8514681",
      "longitude": "-104.9778999"
    }
  },
  {
    "name": "Advanced Practice Headache and Primary Care Clinic",
    "address": "1128 Eagleridge Blvd, Pueblo, CO 81008",
    "location": {
      "latitude": "38.32024230781436",
      "longitude": "-104.62258341539942"
    }
  },
  {
    "name": "Alpine Pharmacy",
    "address": "8600 West 14th Ave Suite 4, Lakewood, CO 80215",
    "location": {
      "latitude": 0,
      "longitude": 0
    }
  },
  {
    "name": "Advanced Urgent Care & Occupational Medicine - Lafayette",
    "address": "297 US-287 Suite 110, Lafayette, CO 80026",
    "location": {
      "latitude": 0,
      "longitude": 0
    }
  },
  {
    "name": "Advanced Urgent Care & Occupational Medicine - Centennial-Southglenn",
    "address": "2241 E. Arapahoe Rd, Centennial, CO 80122",
    "location": {
      "latitude": "39.5951331",
      "longitude": "-104.9799554"
    }
  },
  {
    "name": "Rocky Mountain Pharmacy",
    "address": "455 E Wonderview Ave Ste B1, Estes Park, CO",
    "location": {
      "latitude": 0,
      "longitude": 0
    }
  },
  {
    "name": "Genoa Healthcare at San Luis Valley Behavioral Health",
    "address": "8745 County Rd 9 S #152, Alamosa, CO 81101",
    "location": {}
  },
  {
    "name": "Genoa Healthcare",
    "address": "700 Centre Ave, Fort Collins, CO 80526",
    "location": {
      "latitude": "40.5555307",
      "longitude": "-105.0958836"
    }
  },
  {
    "name": "Genoea Pharmacy at Health Solutions",
    "address": "41 Montebello Rd., Pueblo, CO 81001",
    "location": {
      "latitude": "38.305744",
      "longitude": "-104.598175"
    }
  },
  {
    "name": "Allhealth Network Pharmacy",
    "address": "5500 S Sycamore St Ste 100, Littleton, CO",
    "location": {
      "latitude": 0,
      "longitude": 0
    }
  },
  {
    "name": "Denver Endocrinology Diabetes & Thyroid Center",
    "address": "799 E. Hampden Ave., Suite 525 Englewood, CO 80113",
    "location": {
      "latitude": 0,
      "longitude": 0
    }
  },
  {
    "name": "Genoa Healthcare at Diversus Health",
    "address": "875 W Moreno Ave, Colorado Springs, CO 80905",
    "location": {
      "latitude": "38.8249247",
      "longitude": "-104.8424212"
    }
  },
  {
    "name": "Elevate Medical",
    "address": "5601 S Broadway Suite 470, Littleton, CO 80121",
    "location": {
      "latitude": 0,
      "longitude": 0
    }
  },
  {
    "name": "Genoa Healthcare #20222",
    "address": "1795 Jet Wing Dr Rm 2230, Colorado Springs, CO",
    "location": {
      "latitude": 0,
      "longitude": 0
    }
  },
  {
    "name": "Mercy Pharmacy",
    "address": "2200 S Federal Blvd Unit 3, Denver, CO",
    "location": {
      "latitude": 0,
      "longitude": 0
    }
  },
  {
    "name": "Pharmaca Integrative Pharmacy #028",
    "address": "5910 S University Blvd Blvd Ste E2, Littleton, CO",
    "location": {
      "latitude": 0,
      "longitude": 0
    }
  },
  {
    "name": "Genoa Pharmacy at North Range Behavioral Health",
    "address": "1300 N 17th Ave, Greeley, CO",
    "location": {
      "latitude": 0,
      "longitude": 0
    }
  },
  {
    "name": "Colorado Physician Partners Family Medicine Clinic",
    "address": "6179 S. Balsam Way, Suite 110, Littleton, CO 80123",
    "location": {
      "latitude": 0,
      "longitude": 0
    }
  },
  {
    "name": "Green Mountain Partners for Health",
    "address": "200 Union Blvd, Suite 311 Lakewood, CO 80228",
    "location": {
      "latitude": 0,
      "longitude": 0
    }
  },
  {
    "name": "Genoa Healthcare at SummitStone Health Partners",
    "address": "1250 N. Wilson Ave. Loveland, CO 80537",
    "location": {
      "latitude": "40.4002003",
      "longitude": "-105.1106267"
    }
  },
  {
    "name": "Clark's Market",
    "address": "500 Belleview Ave, Crested Butte, CO, 81224",
    "location": {
      "latitude": "38.866961",
      "longitude": "-106.982388"
    }
  },
  {
    "name": "Lakeside Youth N Kids Pediatrics",
    "address": "6055 W 46TH Ave Suite A Wheat Ridge, CO 80033",
    "location": {
      "latitude": 0,
      "longitude": 0
    }
  },
  {
    "name": "PediaClinic Convenient Care Clinic",
    "address": "9555 S University Blvd #102, Highlands Ranch, CO 80126",
    "location": {}
  },
  {
    "name": "Uccs Wellness Center",
    "address": "1420 Austin Bluffs Pkwy, Colorado Springs, CO",
    "location": {
      "latitude": "38.89595045",
      "longitude": "-104.80620980878993"
    }
  },
  {
    "name": "SoCO Primary Care Clinic",
    "address": "1310 Fortino Blvd Suite D, Pueblo, CO 81008",
    "location": {
      "latitude": 0,
      "longitude": 0
    }
  },
  {
    "name": "Delta Waves, Inc.",
    "address": "5835 Lehman Dr, Colorado Springs, CO",
    "location": {
      "latitude": "38.91746330142696",
      "longitude": "-104.78821635547747"
    }
  },
  {
    "name": "Concentra Aurora North",
    "address": "15235 E 38th Ave, Aurora, CO 80011",
    "location": {
      "latitude": "39.76891657575758",
      "longitude": "-104.81081885858586"
    }
  },
  {
    "name": "Kidney Center of Westminster",
    "address": "8410 Decatur St Westminster, CO 80031",
    "location": {
      "latitude": "39.84952396049201",
      "longitude": "-105.02237398405784"
    }
  },
  {
    "name": "VitalPoint Urgent Care",
    "address": "2035 S Pueblo Blvd, Pueblo, CO 81005",
    "location": {
      "latitude": "38.2380905",
      "longitude": "-104.6624043"
    }
  },
  {
    "name": "Pete Coors Medical Center",
    "address": "1109 Ford St, Golden, CO 80401",
    "location": {
      "latitude": "39.75786161538462",
      "longitude": "-105.22026761538461"
    }
  },
  {
    "name": "Colorado Community Clinic",
    "address": "1605 N Union Blvd, COlorado Springs, CO",
    "location": {
      "latitude": 0,
      "longitude": 0
    }
  },
  {
    "name": "Ascent Health Center",
    "address": "7581 E Academy Blvd Hanger 2, Denver, CO 80230",
    "location": {
      "latitude": 0,
      "longitude": 0
    }
  },
  {
    "name": "New Horizons Primary Care",
    "address": "14707 E 2nd Ave Unit 150, Aurora, CO 80011",
    "location": {
      "latitude": 0,
      "longitude": 0
    }
  },
  {
    "name": "Afc Urgent Care Broadway",
    "address": "5102 S Broadway, Englewood, CO",
    "location": {
      "latitude": "39.62385236363636",
      "longitude": "-104.98787781818181"
    }
  },
  {
    "name": "Colorado Center of Medical Excellence",
    "address": "4700 E. Hale Pkwy, Suite 300, Denver CO 80220",
    "location": {
      "latitude": 0,
      "longitude": 0
    }
  },
  {
    "name": "Heartland Pharmacy Denver",
    "address": "8599 Prairie Trail Dr Ste 300, Englewood, CO",
    "location": {
      "latitude": 0,
      "longitude": 0
    }
  },
  {
    "name": "Charis Medical Center",
    "address": "2150 Academy Cir Unit A, COlorado Springs, CO",
    "location": {
      "latitude": 0,
      "longitude": 0
    }
  },
  {
    "name": "Peak Vitality",
    "address": "8101 E Prentice Ave #100, Greenwood Village, CO 80111",
    "location": {}
  },
  {
    "name": "Silt Family Practice - Valley View Hospital",
    "address": "2001 Red Feather Trail, Silt, CO 81652",
    "location": {
      "latitude": "39.546054999999996",
      "longitude": "-107.64013751384365"
    }
  },
  {
    "name": "Living Well Family Medicine",
    "address": "695 S Colorado Blvd #160, Denver, CO 80246",
    "location": {}
  },
  {
    "name": "Apex Pharmacy Llc",
    "address": "12597 E Mississippi Ave Unit 300, Aurora, CO",
    "location": {
      "latitude": 0,
      "longitude": 0
    }
  },
  {
    "name": "Advanced Urgent Care and Occupational Medicine\n Frcc",
    "address": "3645 W 112th Ave, Westminster, CO",
    "location": {
      "latitude": "39.901943349999996",
      "longitude": "-105.03904828960512"
    }
  },
  {
    "name": "Pharmerica Broomfield",
    "address": "557 Burbank St Unit Q, Broomfield, CO",
    "location": {
      "latitude": 0,
      "longitude": 0
    }
  },
  {
    "name": "Good Day Pharmacy Ft. Collins",
    "address": "2601 S Lemay Ave, Fort Collins, CO 80525",
    "location": {
      "latitude": "40.5505146",
      "longitude": "-105.0588102"
    }
  },
  {
    "name": "Good Day Pharmacy Longmont",
    "address": "1749 Main St, Longmont, CO 80501",
    "location": {
      "latitude": "40.1906064",
      "longitude": "-105.1028517"
    }
  },
  {
    "name": "Prowers County Hospital District",
    "address": "401 Kendall Drive, Lamar, CO 81052",
    "location": {
      "latitude": "38.0702066",
      "longitude": "-102.61081026807844"
    }
  },
  {
    "name": "Generations Primary Care",
    "address": "44 East Spaulding Avenue, Building 2, Suite 3, Pueblo West, CO 81007",
    "location": {
      "latitude": 0,
      "longitude": 0
    }
  },
  {
    "name": "Delta Health Internal Medicine",
    "address": "1450 Burgess St, Delta, CO 81416",
    "location": {
      "latitude": "38.74448308163265",
      "longitude": "-108.04801118367347"
    }
  },
  {
    "name": "Grand Junction Convention Center community vaccination site",
    "address": "159 Main St,Grand Junction, CO 81501",
    "location": {
      "latitude": "39.06696885",
      "longitude": "-108.56996049816081"
    }
  },
  {
    "name": "Evergreen Fire Rescue",
    "address": "1802 Bergen Pkwy, Evergreen, CO 80439",
    "location": {
      "latitude": 0,
      "longitude": 0
    }
  },
  {
    "name": "Genoa Healthcare at Aurora Mental Health Center",
    "address": "791 Chambers Road, Room 152, Aurora, CO 80011",
    "location": {
      "latitude": 0,
      "longitude": 0
    }
  },
  {
    "name": "Sameday Health",
    "address": "3170 E 2nd Ave, Denver, CO, 80206",
    "location": {
      "latitude": "39.719325",
      "longitude": "-104.95021942857143"
    }
  },
  {
    "name": "PVMG Brighton Family Medicine",
    "address": "1606 Prairie Center Pkwy STE 240 Brighton, CO 80601",
    "location": {
      "latitude": 0,
      "longitude": 0
    }
  },
  {
    "name": "Memorial Regional Health",
    "address": "750 Hospital Loop, Craig, CO 81625",
    "location": {
      "latitude": "40.5183896",
      "longitude": "-107.57995637709541"
    }
  },
  {
    "name": "A C Enterprises LLC",
    "address": "701 N 20th St Ste 6, Colorado Springs, CO, 80904",
    "location": {
      "latitude": 0,
      "longitude": 0
    }
  },
  {
    "name": "Sameday Health",
    "address": "315 E Hyman Ave Suite 303, Aspen, CO",
    "location": {
      "latitude": 0,
      "longitude": 0
    }
  },
  {
    "name": "Foothills Chiropractic and Wellness",
    "address": "7761 Shaffer Pkwy, Suite 225\nLittleton, CO 80127",
    "location": {
      "latitude": 0,
      "longitude": 0
    }
  },
  {
    "name": "Charis Medical Center",
    "address": "2150 Academy Cir Unit A, Colorado Springs, CO",
    "location": {
      "latitude": 0,
      "longitude": 0
    }
  },
  {
    "name": "Nomi Health - Chapel Hills Mall",
    "address": "1710 Briargate Blvd, Colorado Springs, CO 80920",
    "location": {
      "latitude": "38.94491249382716",
      "longitude": "-104.79312391358025"
    }
  },
  {
    "name": "Centura Health Tri-Lakes Primary Care",
    "address": "17230 Jackson Creek Pkwy Ste 300, Monument, CO 80132",
    "location": {
      "latitude": 0,
      "longitude": 0
    }
  },
  {
    "name": "Porter Primary Care",
    "address": "950 E Harvard Ave #200, Denver, CO 80210",
    "location": {}
  },
  {
    "name": "All In Family Medicine",
    "address": "2139 N Academy Blvd, Colorado Springs, CO 80909",
    "location": {
      "latitude": "38.8526944",
      "longitude": "-104.7574248"
    }
  },
  {
    "name": "Our Lady of Hope Medical Clinic",
    "address": "7960 S University Blvd STE 203, Centennial, CO",
    "location": {
      "latitude": 0,
      "longitude": 0
    }
  },
  {
    "name": "Arapahoe Community College",
    "address": "5900 S Santa Fe Drive, Littleton, CO",
    "location": {
      "latitude": 0,
      "longitude": 0
    }
  },
  {
    "name": "Southwest Plaza - Dillards Lot",
    "address": "8501 West Bowles Avenue, Littleton, CO",
    "location": {
      "latitude": "39.6096552",
      "longitude": "-105.0385909"
    }
  },
  {
    "name": "Matthews-Vu South Academy",
    "address": "1050 S. Academy Blvd, Suite 140, Colorado Springs, CO 80910",
    "location": {
      "latitude": 0,
      "longitude": 0
    }
  },
  {
    "name": "Aspen Valley Hospital",
    "address": "401 Castle Creek Rd, Aspen, CO 81611",
    "location": {
      "latitude": "39.190596150000005",
      "longitude": "-106.83936305920894"
    }
  },
  {
    "name": "SCL Health Midtown",
    "address": "1960 N Ogden St Unit 120, Denver, CO 80218",
    "location": {
      "latitude": 0,
      "longitude": 0
    }
  },
  {
    "name": "MedNOW Clinics - Aurora",
    "address": "15101 E Iliff Ave #140, Aurora, CO 80014",
    "location": {}
  },
  {
    "name": "Arapahoe Park Pediatrics - Littleton",
    "address": "7780 S Broadway #220, Littleton, CO 80122",
    "location": {}
  },
  {
    "name": "Gem Pharmacy",
    "address": "191 E Orchard Rd Ste 100, Littleton, CO",
    "location": {
      "latitude": 0,
      "longitude": 0
    }
  },
  {
    "name": "Greenwood Village Family Medicine",
    "address": "4380 South Syracuse St. Suite 315 Denver, CO 80237",
    "location": {
      "latitude": 0,
      "longitude": 0
    }
  },
  {
    "name": "Ryan Kramer, MD",
    "address": "1370 S Wadsworth Blvd, Lakewood, CO 80232",
    "location": {
      "latitude": "39.691716285714286",
      "longitude": "-105.08144171428572"
    }
  },
  {
    "name": "Colorado Canyons Hospital and Medical Center",
    "address": "300 W Ottley Ave, Fruita, CO",
    "location": {
      "latitude": "39.163757849999996",
      "longitude": "-108.7371512215622"
    }
  },
  {
    "name": "Della Cava Medical Pavilion",
    "address": "4801 Riverbend Rd, Boulder, CO 80301",
    "location": {
      "latitude": "40.01631675",
      "longitude": "-105.23423542500001"
    }
  },
  {
    "name": "Scl Health Good Samaritan Medical Center",
    "address": "200 Exempla Cir, Lafayette, CO",
    "location": {
      "latitude": "39.96976445",
      "longitude": "-105.08660463304719"
    }
  },
  {
    "name": "Vail Health Hospital",
    "address": "181 W Meadow Dr Ste 1055, Vail, CO",
    "location": {
      "latitude": "39.64347535",
      "longitude": "-106.38232672907262"
    }
  },
  {
    "name": "Sedgwick County Memorial Hospital",
    "address": "900 Cedar St, Julesburg, CO",
    "location": {
      "latitude": "40.9940109",
      "longitude": "-102.2686398"
    }
  },
  {
    "name": "Keefe Memorial Health Service District",
    "address": "602 North 6th Street West, Cheyenne Wells, CO",
    "location": {
      "latitude": 0,
      "longitude": 0
    }
  },
  {
    "name": "Community Hospital",
    "address": "2351 G Road, Grand Junction, CO 81505",
    "location": {
      "latitude": "39.1051624",
      "longitude": "-108.61466096060033"
    }
  },
  {
    "name": "Aspen Valley Hospital",
    "address": "401 Castle Creek Rd, Aspen, CO",
    "location": {
      "latitude": "39.190596150000005",
      "longitude": "-106.83936305920894"
    }
  },
  {
    "name": "Pagosa Springs Medical Center",
    "address": "95 S Pagosa Blvd",
    "location": {
      "latitude": "37.2525744",
      "longitude": "-107.07832844258624"
    }
  },
  {
    "name": "UCHealth Greeley Hospital",
    "address": "6767 29th St, Greeley, CO",
    "location": {
      "latitude": "40.3899781",
      "longitude": "-104.7608346"
    }
  },
  {
    "name": "UCHealth Medical Center Of The Rockies",
    "address": "2500 Rocky Mountain Ave, Loveland, CO",
    "location": {
      "latitude": "40.415419799999995",
      "longitude": "-104.9974664214923"
    }
  },
  {
    "name": "UCHealth Longs Peak Hospital",
    "address": "1750 E Ken Pratt Blvd, Longmont, CO",
    "location": {
      "latitude": 0,
      "longitude": 0
    }
  },
  {
    "name": "Yuma District Hospital",
    "address": "1000 W 8th Ave, Yuma, CO",
    "location": {
      "latitude": "40.12003385",
      "longitude": "-102.7370081331755"
    }
  },
  {
    "name": "St. Thomas More Hospital",
    "address": "1338 Phay Ave, Canon City, CO",
    "location": {
      "latitude": "38.45471875",
      "longitude": "-105.23111689959242"
    }
  },
  {
    "name": "Valumed Pharmacy",
    "address": "159 Bent Ave, Las Animas, CO",
    "location": {
      "latitude": "38.07238402040816",
      "longitude": "-103.21998381632653"
    }
  },
  {
    "name": "Optum Clinical Pharmacy",
    "address": "1633 Medical Center Pt, Colorado Springs, CO",
    "location": {
      "latitude": "38.8749633",
      "longitude": "-104.7957227"
    }
  },
  {
    "name": "Haxtun Hospital District",
    "address": "235 W Fletcher St, Haxtun, CO",
    "location": {
      "latitude": "40.6418534",
      "longitude": "-102.631334325"
    }
  },
  {
    "name": "City Of Thornton Fire Department",
    "address": "9500 Civic Center Dr, Thornton, CO",
    "location": {
      "latitude": "39.869091",
      "longitude": "-104.984232"
    }
  },
  {
    "name": "Valley Wide Pharmacy",
    "address": "1710 1st St, Alamosa, CO",
    "location": {
      "latitude": "37.4708739",
      "longitude": "-105.857379"
    }
  },
  {
    "name": "Spanish Peaks Regional Health Center",
    "address": "23500 US Hwy 160, Walsenburg, CO",
    "location": {
      "latitude": 0,
      "longitude": 0
    }
  },
  {
    "name": "Pioneers Medical Center",
    "address": "99 Pioneers Medical Center Drive, Meeker CO, 81641",
    "location": {
      "latitude": "40.0452361",
      "longitude": "-107.8800355"
    }
  },
  {
    "name": "Kiowa County Hospital District",
    "address": "1208 Luther St, Eads, CO",
    "location": {
      "latitude": "38.4804084",
      "longitude": "-102.78484035"
    }
  },
  {
    "name": "Associates In Family Medicine Horsetooth Urgent Care",
    "address": "3519 Richmond Dr, Fort Collins, CO",
    "location": {
      "latitude": "40.538882960185965",
      "longitude": "-105.09863521751517"
    }
  },
  {
    "name": "Lowry COVID Drive Through",
    "address": "1001 Yosemite St, Denver, CO",
    "location": {
      "latitude": "39.73024282254318",
      "longitude": "-104.88548320111529"
    }
  },
  {
    "name": "Valley Wide Health Systems Buena Vista",
    "address": "707 US Hwy 24, Buena Vista, CO",
    "location": {
      "latitude": "38.923393",
      "longitude": "-106.18222"
    }
  },
  {
    "name": "The Pic Place/Community Dental Clinic",
    "address": "87 Merchant Dr, Montrose, CO",
    "location": {
      "latitude": "38.489579603325325",
      "longitude": "-107.8917533140617"
    }
  },
  {
    "name": "Lyons Corner Drug",
    "address": "840 Lincoln Ave, Steamboat Springs, CO",
    "location": {
      "latitude": "40.486466081632656",
      "longitude": "-106.83503240816327"
    }
  },
  {
    "name": "Harris Pharmacy",
    "address": "309 N Main St, Rocky Ford, CO",
    "location": {
      "latitude": "38.0543526",
      "longitude": "-103.7188602"
    }
  },
  {
    "name": "Willow Creek Pharmacy",
    "address": "S Main St, Lamar, CO",
    "location": {
      "latitude": "38.0881091",
      "longitude": "-102.6192968"
    }
  },
  {
    "name": "Hopelight Medical Clinic",
    "address": "1351 Collyer St, Longmont, CO 80501",
    "location": {
      "latitude": "40.18285485",
      "longitude": "-105.09803557144521"
    }
  },
  {
    "name": "Matthews-Vu Medical Group",
    "address": "4190 E Woodmen Rd Ste 100, Colorado Springs, CO",
    "location": {
      "latitude": 0,
      "longitude": 0
    }
  },
  {
    "name": "Matthews-Vu Rockrimmon",
    "address": "104 Pro Rodeo Dr Ste 100, Colorado Springs, CO",
    "location": {
      "latitude": 0,
      "longitude": 0
    }
  },
  {
    "name": "Church Ranch Primary Care",
    "address": "7233 Church Ranch Blvd, Westminster, CO 80021",
    "location": {
      "latitude": "39.88404475",
      "longitude": "-105.07693831084936"
    }
  },
  {
    "name": "North Union Medicine Shoppe",
    "address": "2431 N Union Blvd, Colorado Springs, CO",
    "location": {
      "latitude": 0,
      "longitude": 0
    }
  },
  {
    "name": "Colorado Primary Care Clinic, Inc",
    "address": "2600 S Parker Rd Rd Bldg 2, Aurora, CO",
    "location": {
      "latitude": 0,
      "longitude": 0
    }
  },
  {
    "name": "Rivergate Pharmacy",
    "address": "575 Rivergate Lane Suite 111, Durango CO",
    "location": {
      "latitude": 0,
      "longitude": 0
    }
  },
  {
    "name": "Astra Healthcare Inc",
    "address": "6825 E Tennessee Ave Ste 350, Denver, CO",
    "location": {
      "latitude": 0,
      "longitude": 0
    }
  },
  {
    "name": "Mesa Pharmacy Of Pueblo",
    "address": "25140 E US Hwy 50, Pueblo, CO",
    "location": {
      "latitude": 0,
      "longitude": 0
    }
  },
  {
    "name": "Safeway Pharmacy #1463",
    "address": "S Downing St, Littleton, CO",
    "location": {
      "latitude": "39.5674",
      "longitude": "-104.974531"
    }
  },
  {
    "name": "Safeway Pharmacy #0841",
    "address": "1200 S Buckley Rd Rd, Aurora, CO",
    "location": {
      "latitude": 0,
      "longitude": 0
    }
  },
  {
    "name": "King Soopers Pharmacy #126",
    "address": "17761 Cottonwood Dr, Parker, CO",
    "location": {
      "latitude": "39.56003715",
      "longitude": "-104.78284048969648"
    }
  },
  {
    "name": "Arvada Sports and Family Medicine",
    "address": "16280 W 64th Ave, Arvada, CO 80007",
    "location": {
      "latitude": "39.81261619360823",
      "longitude": "-105.1811199717514"
    }
  }
]